{
"type": "FeatureCollection",
"name": "POITransportes",
"crs": { "type": "name", "properties": { "name": "urn:ogc:def:crs:OGC:1.3:CRS84" } },
"features": [
{ "type": "Feature", "properties": { "OBJECTID": 1, "NOME": "Cais do Sodré", "COD_SIG": "35", "IDTIPO": "9008", "SITUACAO": "Linha existente", "LINHA": "Verde", "GlobalID": "d5542849-632f-4127-a009-3988731f3509" }, "geometry": { "type": "Point", "coordinates": [ -9.146091674015469, 38.706270322634602 ] } },
{ "type": "Feature", "properties": { "OBJECTID": 2, "NOME": "Terreiro do Paço", "COD_SIG": "34", "IDTIPO": "9008", "SITUACAO": "Linha existente", "LINHA": "Azul", "GlobalID": "9a90a59a-8b21-4fd7-b9f2-3a633c4cdd07" }, "geometry": { "type": "Point", "coordinates": [ -9.13418787270845, 38.707281630535697 ] } },
{ "type": "Feature", "properties": { "OBJECTID": 3, "NOME": "Baixa Chiado", "COD_SIG": "33", "IDTIPO": "9008", "SITUACAO": "Linha existente", "LINHA": "Azul/Verde", "GlobalID": "18279178-37b5-4bf9-9136-c67aa97d6559" }, "geometry": { "type": "Point", "coordinates": [ -9.140150606595119, 38.710570070596802 ] } },
{ "type": "Feature", "properties": { "OBJECTID": 4, "NOME": "Santa Apolónia", "COD_SIG": "37", "IDTIPO": "9008", "SITUACAO": "Linha existente", "LINHA": "Azul", "GlobalID": "ebb35126-e7bf-4c7f-b3a4-deb2f3b899a0" }, "geometry": { "type": "Point", "coordinates": [ -9.122408594967821, 38.7140379826131 ] } },
{ "type": "Feature", "properties": { "OBJECTID": 5, "NOME": "Rossio", "COD_SIG": "43", "IDTIPO": "9008", "SITUACAO": "Linha existente", "LINHA": "Verde", "GlobalID": "302467d8-12a1-4052-86ac-8a33be669894" }, "geometry": { "type": "Point", "coordinates": [ -9.13792337488367, 38.714184986740896 ] } },
{ "type": "Feature", "properties": { "OBJECTID": 6, "NOME": "Restauradores", "COD_SIG": "42", "IDTIPO": "9008", "SITUACAO": "Linha existente", "LINHA": "Azul", "GlobalID": "f58f5356-9af7-42e6-8ccb-f755d546d503" }, "geometry": { "type": "Point", "coordinates": [ -9.142360093884781, 38.716261443999599 ] } },
{ "type": "Feature", "properties": { "OBJECTID": 7, "NOME": "Martim Moniz", "COD_SIG": "36", "IDTIPO": "9008", "SITUACAO": "Linha existente", "LINHA": "Verde", "GlobalID": "cb67572f-f926-40e6-8434-f2ec24547f1a" }, "geometry": { "type": "Point", "coordinates": [ -9.13576853390934, 38.717778630055498 ] } },
{ "type": "Feature", "properties": { "OBJECTID": 8, "NOME": "Avenida", "COD_SIG": "32", "IDTIPO": "9008", "SITUACAO": "Linha existente", "LINHA": "Azul", "GlobalID": "6d61e9ac-50cc-4087-9db7-e2ad456a1c2d" }, "geometry": { "type": "Point", "coordinates": [ -9.145103741900281, 38.719497056999899 ] } },
{ "type": "Feature", "properties": { "OBJECTID": 9, "NOME": "Rato", "COD_SIG": "45", "IDTIPO": "9008", "SITUACAO": "Linha existente", "LINHA": "Amarela", "GlobalID": "1b2fe3e2-0d2e-4f2b-bf10-4dac7fd88033" }, "geometry": { "type": "Point", "coordinates": [ -9.15482415556988, 38.720272172950303 ] } },
{ "type": "Feature", "properties": { "OBJECTID": 10, "NOME": "Intendente", "COD_SIG": "31", "IDTIPO": "9008", "SITUACAO": "Linha existente", "LINHA": "Verde", "GlobalID": "1d56960b-0d26-41b2-a8e2-e30ce26504b2" }, "geometry": { "type": "Point", "coordinates": [ -9.13522530828399, 38.723418096975401 ] } },
{ "type": "Feature", "properties": { "OBJECTID": 11, "NOME": "Marquês de Pombal", "COD_SIG": "23", "IDTIPO": "9008", "SITUACAO": "Linha existente", "LINHA": "Azul/Amarela", "GlobalID": "9aca5b77-6433-4b6c-934b-64ed3d324dff" }, "geometry": { "type": "Point", "coordinates": [ -9.150048034189769, 38.725315583014002 ] } },
{ "type": "Feature", "properties": { "OBJECTID": 12, "NOME": "Anjos", "COD_SIG": "30", "IDTIPO": "9008", "SITUACAO": "Linha existente", "LINHA": "Verde", "GlobalID": "5da04922-a5db-430e-be08-3a0c56b992ab" }, "geometry": { "type": "Point", "coordinates": [ -9.134850036175729, 38.727188131647303 ] } },
{ "type": "Feature", "properties": { "OBJECTID": 13, "NOME": "Parque", "COD_SIG": "22", "IDTIPO": "9008", "SITUACAO": "Linha existente", "LINHA": "Azul", "GlobalID": "0740fd3d-097c-4e9d-ad90-bb19b8b4e513" }, "geometry": { "type": "Point", "coordinates": [ -9.15011688556474, 38.7293015216285 ] } },
{ "type": "Feature", "properties": { "OBJECTID": 14, "NOME": "Picoas", "COD_SIG": "21", "IDTIPO": "9008", "SITUACAO": "Linha existente", "LINHA": "Amarela", "GlobalID": "43759d29-70d9-4498-8d74-49601263efb5" }, "geometry": { "type": "Point", "coordinates": [ -9.146996943158189, 38.730396755054002 ] } },
{ "type": "Feature", "properties": { "OBJECTID": 15, "NOME": "Arroios", "COD_SIG": "29", "IDTIPO": "9008", "SITUACAO": "Linha existente", "LINHA": "Verde", "GlobalID": "84e46573-4b12-4720-bff8-4107e524a7ab" }, "geometry": { "type": "Point", "coordinates": [ -9.13426635492157, 38.733009619930897 ] } },
{ "type": "Feature", "properties": { "OBJECTID": 16, "NOME": "São Sebastião", "COD_SIG": "19", "IDTIPO": "9008", "SITUACAO": "Linha existente", "LINHA": "Azul/Vermelha", "GlobalID": "43b4e8c9-7541-44f8-898e-4210b87df8d2" }, "geometry": { "type": "Point", "coordinates": [ -9.153940535825511, 38.734530728387803 ] } },
{ "type": "Feature", "properties": { "OBJECTID": 17, "NOME": "Saldanha", "COD_SIG": "20", "IDTIPO": "9008", "SITUACAO": "Linha existente", "LINHA": "Amarela/Vermelha", "GlobalID": "e992479b-30c8-4129-bf84-e1d704517307" }, "geometry": { "type": "Point", "coordinates": [ -9.145333429440329, 38.735323256172997 ] } },
{ "type": "Feature", "properties": { "OBJECTID": 18, "NOME": "Alameda", "COD_SIG": "18", "IDTIPO": "9008", "SITUACAO": "Linha existente", "LINHA": "Verde/Vermelha", "GlobalID": "4fff6c2c-3fb0-4b7e-bc80-8531ff92fc46" }, "geometry": { "type": "Point", "coordinates": [ -9.133870746751921, 38.736965959428296 ] } },
{ "type": "Feature", "properties": { "OBJECTID": 19, "NOME": "Praça de Espanha", "COD_SIG": "24", "IDTIPO": "9008", "SITUACAO": "Linha existente", "LINHA": "Azul", "GlobalID": "190a539c-a139-4eb7-8ae4-c47a2b762929" }, "geometry": { "type": "Point", "coordinates": [ -9.159328880631289, 38.737862855645297 ] } },
{ "type": "Feature", "properties": { "OBJECTID": 20, "NOME": "Olaias", "COD_SIG": "12", "IDTIPO": "9008", "SITUACAO": "Linha existente", "LINHA": "Vermelha", "GlobalID": "16aa7fb9-4ac1-4a9c-a8db-69016edc4e10" }, "geometry": { "type": "Point", "coordinates": [ -9.12294096085969, 38.740355776831798 ] } },
{ "type": "Feature", "properties": { "OBJECTID": 21, "NOME": "Campo Pequeno", "COD_SIG": "17", "IDTIPO": "9008", "SITUACAO": "Linha existente", "LINHA": "Amarela", "GlobalID": "96732259-7190-440a-9141-f4a916881bc6" }, "geometry": { "type": "Point", "coordinates": [ -9.146697856270871, 38.740954840358498 ] } },
{ "type": "Feature", "properties": { "OBJECTID": 22, "NOME": "Jardim Zoológico", "COD_SIG": "25", "IDTIPO": "9008", "SITUACAO": "Linha existente", "LINHA": "Azul", "GlobalID": "26e996ef-c8d6-44a0-807e-184275757e53" }, "geometry": { "type": "Point", "coordinates": [ -9.168327471918969, 38.741365055371197 ] } },
{ "type": "Feature", "properties": { "OBJECTID": 23, "NOME": "Areeiro", "COD_SIG": "13", "IDTIPO": "9008", "SITUACAO": "Linha existente", "LINHA": "Verde", "GlobalID": "7c244e33-868c-484d-9ade-37b4224f81bd" }, "geometry": { "type": "Point", "coordinates": [ -9.133455481647211, 38.7424454426003 ] } },
{ "type": "Feature", "properties": { "OBJECTID": 24, "NOME": "Entre Campos", "COD_SIG": "16", "IDTIPO": "9008", "SITUACAO": "Linha existente", "LINHA": "Amarela", "GlobalID": "23ab3dd2-e164-434c-851d-46575f088a93" }, "geometry": { "type": "Point", "coordinates": [ -9.148196147350109, 38.747141979181499 ] } },
{ "type": "Feature", "properties": { "OBJECTID": 25, "NOME": "Bela Vista", "COD_SIG": "11", "IDTIPO": "9008", "SITUACAO": "Linha existente", "LINHA": "Vermelha", "GlobalID": "578e568e-c635-4846-ae25-ee64e25c1f20" }, "geometry": { "type": "Point", "coordinates": [ -9.11769167346327, 38.747761984986703 ] } },
{ "type": "Feature", "properties": { "OBJECTID": 26, "NOME": "Roma", "COD_SIG": "14", "IDTIPO": "9008", "SITUACAO": "Linha existente", "LINHA": "Verde", "GlobalID": "4f8c0c0c-4e24-4e52-8c48-3d314f4a76c9" }, "geometry": { "type": "Point", "coordinates": [ -9.141270682685249, 38.748243465833497 ] } },
{ "type": "Feature", "properties": { "OBJECTID": 27, "NOME": "Laranjeiras", "COD_SIG": "26", "IDTIPO": "9008", "SITUACAO": "Linha existente", "LINHA": "Azul", "GlobalID": "9f18fdf1-265d-485b-a51e-030ad487e960" }, "geometry": { "type": "Point", "coordinates": [ -9.17248892825242, 38.748654447461497 ] } },
{ "type": "Feature", "properties": { "OBJECTID": 28, "NOME": "Alto dos Moinhos", "COD_SIG": "28", "IDTIPO": "9008", "SITUACAO": "Linha existente", "LINHA": "Azul", "GlobalID": "22660302-719a-48fd-b9d8-88231ddb5eed" }, "geometry": { "type": "Point", "coordinates": [ -9.180553683073009, 38.750135804540697 ] } },
{ "type": "Feature", "properties": { "OBJECTID": 29, "NOME": "Cidade Universitária", "COD_SIG": "27", "IDTIPO": "9008", "SITUACAO": "Linha existente", "LINHA": "Amarela", "GlobalID": "323b2790-646a-4c8a-8ef8-f0e4d21d72bc" }, "geometry": { "type": "Point", "coordinates": [ -9.1591239821015, 38.751598421555897 ] } },
{ "type": "Feature", "properties": { "OBJECTID": 30, "NOME": "Reboleira", "COD_SIG": "48", "IDTIPO": "9008", "SITUACAO": "Linha existente", "LINHA": "Azul", "GlobalID": "a29543de-4c2e-4e3b-80da-97113bbba3eb" }, "geometry": { "type": "Point", "coordinates": [ -9.223883295575069, 38.752271287954002 ] } },
{ "type": "Feature", "properties": { "OBJECTID": 31, "NOME": "Alvalade", "COD_SIG": "15", "IDTIPO": "9008", "SITUACAO": "Linha existente", "LINHA": "Verde", "GlobalID": "35fb6a7f-40f8-45b2-bee5-fe1638307137" }, "geometry": { "type": "Point", "coordinates": [ -9.144065712538319, 38.753432901327599 ] } },
{ "type": "Feature", "properties": { "OBJECTID": 32, "NOME": "Colégio Militar", "COD_SIG": "39", "IDTIPO": "9008", "SITUACAO": "Linha existente", "LINHA": "Azul", "GlobalID": "3398fed5-c640-4d0b-a323-a12c1fda379a" }, "geometry": { "type": "Point", "coordinates": [ -9.18982582843268, 38.753873703272198 ] } },
{ "type": "Feature", "properties": { "OBJECTID": 33, "NOME": "Chelas", "COD_SIG": "10", "IDTIPO": "9008", "SITUACAO": "Linha existente", "LINHA": "Vermelha", "GlobalID": "7e8541af-4f48-4d8b-aa61-fb3fd3b18661" }, "geometry": { "type": "Point", "coordinates": [ -9.114013129866979, 38.754913036994203 ] } },
{ "type": "Feature", "properties": { "OBJECTID": 34, "NOME": "Amadora Este", "COD_SIG": "41", "IDTIPO": "9008", "SITUACAO": "Linha existente", "LINHA": "Azul", "GlobalID": "4fad269e-f0f0-4409-b841-fbb12b38c8b7" }, "geometry": { "type": "Point", "coordinates": [ -9.217901617117381, 38.758715859802003 ] } },
{ "type": "Feature", "properties": { "OBJECTID": 35, "NOME": "Carnide", "COD_SIG": "44", "IDTIPO": "9008", "SITUACAO": "Linha existente", "LINHA": "Azul", "GlobalID": "01c49adf-f719-4475-9b7c-2fd8094a0440" }, "geometry": { "type": "Point", "coordinates": [ -9.19273248473962, 38.759172619956203 ] } },
{ "type": "Feature", "properties": { "OBJECTID": 36, "NOME": "Campo Grande", "COD_SIG": "3", "IDTIPO": "9008", "SITUACAO": "Linha existente", "LINHA": "Amarela/Verde", "GlobalID": "2e1da3e9-48ce-456a-8f41-1acd1ec17df2" }, "geometry": { "type": "Point", "coordinates": [ -9.15784942991851, 38.760325881960398 ] } },
{ "type": "Feature", "properties": { "OBJECTID": 37, "NOME": "Telheiras", "COD_SIG": "4", "IDTIPO": "9008", "SITUACAO": "Linha existente", "LINHA": "Verde", "GlobalID": "c5ee613f-8ddc-42d8-bc69-03ff86cacc2e" }, "geometry": { "type": "Point", "coordinates": [ -9.166417623980511, 38.760117592287799 ] } },
{ "type": "Feature", "properties": { "OBJECTID": 38, "NOME": "Olivais", "COD_SIG": "9", "IDTIPO": "9008", "SITUACAO": "Linha existente", "LINHA": "Vermelha", "GlobalID": "af65beaa-0c02-458d-8c79-db2f9d6554bd" }, "geometry": { "type": "Point", "coordinates": [ -9.11182031890224, 38.760996474302303 ] } },
{ "type": "Feature", "properties": { "OBJECTID": 39, "NOME": "Alfornelos", "COD_SIG": "40", "IDTIPO": "9008", "SITUACAO": "Linha existente", "LINHA": "Azul", "GlobalID": "12f17f62-d5f7-4319-8e49-1230c428b0af" }, "geometry": { "type": "Point", "coordinates": [ -9.204477478277459, 38.7605071115253 ] } },
{ "type": "Feature", "properties": { "OBJECTID": 40, "NOME": "Pontinha", "COD_SIG": "38", "IDTIPO": "9008", "SITUACAO": "Linha existente", "LINHA": "Azul", "GlobalID": "4eacd102-6411-43e9-8bbf-bdd532c90702" }, "geometry": { "type": "Point", "coordinates": [ -9.196937374617089, 38.762391716354898 ] } },
{ "type": "Feature", "properties": { "OBJECTID": 41, "NOME": "Cabo Ruivo", "COD_SIG": "8", "IDTIPO": "9008", "SITUACAO": "Linha existente", "LINHA": "Vermelha", "GlobalID": "f654fc4f-9d64-49e2-89dd-0711c871d3d7" }, "geometry": { "type": "Point", "coordinates": [ -9.10515078516014, 38.7630996858095 ] } },
{ "type": "Feature", "properties": { "OBJECTID": 42, "NOME": "Quinta das Conchas", "COD_SIG": "2", "IDTIPO": "9008", "SITUACAO": "Linha existente", "LINHA": "Amarela", "GlobalID": "7aa5f011-b676-496b-abcf-de0ec7808119" }, "geometry": { "type": "Point", "coordinates": [ -9.155535453289939, 38.767481815771198 ] } },
{ "type": "Feature", "properties": { "OBJECTID": 43, "NOME": "Oriente", "COD_SIG": "7", "IDTIPO": "9008", "SITUACAO": "Linha existente", "LINHA": "Vermelha", "GlobalID": "e382ecb2-999d-49fc-96a0-958c57c8a1a1" }, "geometry": { "type": "Point", "coordinates": [ -9.09970268801489, 38.768025915031998 ] } },
{ "type": "Feature", "properties": { "OBJECTID": 44, "NOME": "Aeroporto", "COD_SIG": "49", "IDTIPO": "9008", "SITUACAO": "Linha existente", "LINHA": "Vermelha", "GlobalID": "29bfda47-b8bf-4052-8efb-44712c818dee" }, "geometry": { "type": "Point", "coordinates": [ -9.12819861606301, 38.7684670323763 ] } },
{ "type": "Feature", "properties": { "OBJECTID": 45, "NOME": "Lumiar", "COD_SIG": "46", "IDTIPO": "9008", "SITUACAO": "Linha existente", "LINHA": "Amarela", "GlobalID": "5667b77f-3362-48d0-9237-402381f822cc" }, "geometry": { "type": "Point", "coordinates": [ -9.159288760972389, 38.773284338385203 ] } },
{ "type": "Feature", "properties": { "OBJECTID": 46, "NOME": "Encarnação", "COD_SIG": "50", "IDTIPO": "9008", "SITUACAO": "Linha existente", "LINHA": "Vermelha", "GlobalID": "c40dcec1-03a2-4e59-aefd-e5247d48335f" }, "geometry": { "type": "Point", "coordinates": [ -9.11544709887691, 38.775183757475403 ] } },
{ "type": "Feature", "properties": { "OBJECTID": 47, "NOME": "Moscavide", "COD_SIG": "47", "IDTIPO": "9008", "SITUACAO": "Linha existente", "LINHA": "Vermelha", "GlobalID": "2bea0b5d-e68b-4d51-9eab-15be7a13b39a" }, "geometry": { "type": "Point", "coordinates": [ -9.10260796181462, 38.775162244583498 ] } },
{ "type": "Feature", "properties": { "OBJECTID": 48, "NOME": "Ameixoeira", "COD_SIG": "1", "IDTIPO": "9008", "SITUACAO": "Linha existente", "LINHA": "Amarela", "GlobalID": "478c7caf-231f-425e-9434-4ebdbcdd9c63" }, "geometry": { "type": "Point", "coordinates": [ -9.15958265919064, 38.779607392389202 ] } },
{ "type": "Feature", "properties": { "OBJECTID": 49, "NOME": "Senhor Roubado", "COD_SIG": "6", "IDTIPO": "9008", "SITUACAO": "Linha existente", "LINHA": "Amarela", "GlobalID": "e2e36b19-d0aa-40b7-9124-28911182f859" }, "geometry": { "type": "Point", "coordinates": [ -9.17168184766521, 38.785995796269397 ] } },
{ "type": "Feature", "properties": { "OBJECTID": 50, "NOME": "Odivelas", "COD_SIG": "5", "IDTIPO": "9008", "SITUACAO": "Linha existente", "LINHA": "Amarela", "GlobalID": "9d13e28e-31b7-46b1-8907-f271e7a469e3" }, "geometry": { "type": "Point", "coordinates": [ -9.173154543047049, 38.793605539354999 ] } }
]
}
